{"ancient_name": "长安", "modern_name": "Xi'an, Shaanxi, China", "lat": 34.261004, "lon": 108.9423363}
{"ancient_name": "咸阳", "modern_name": "Xianyang, Shaanxi, China", "lat": 34.3323227, "lon": 108.7128495}
{"ancient_name": "洛阳", "modern_name": "Luoyang, Henan, China", "lat": 34.6196539, "lon": 112.4477046}
{"ancient_name": "汴京", "modern_name": "Kaifeng, Henan, China", "lat": 34.604167, "lon": 114.497222}
{"ancient_name": "开封", "modern_name": "Kaifeng, Henan, China", "lat": 34.604167, "lon": 114.497222}
{"ancient_name": "大梁", "modern_name": "Kaifeng, Henan, China", "lat": 34.604167, "lon": 114.497222}
{"ancient_name": "邺城", "modern_name": "Linzhang County, Handan, Hebei, China", "lat": 36.2633625, "lon": 114.5416626}
{"ancient_name": "并州", "modern_name": "Taiyuan, Shanxi, China", "lat": 37.8699921, "lon": 112.5437075}
{"ancient_name": "太原", "modern_name": "Taiyuan, Shanxi, China", "lat": 37.8699921, "lon": 112.5437075}
{"ancient_name": "燕京", "modern_name": "Beijing, China", "lat": 39.9057136, "lon": 116.3912972}
{"ancient_name": "幽州", "modern_name": "Beijing, China", "lat": 39.9057136, "lon": 116.3912972}
{"ancient_name": "涿郡", "modern_name": "Zhuozhou, Hebei, China", "lat": 39.4833502, "lon": 115.96858}
{"ancient_name": "临安", "modern_name": "Hangzhou, Zhejiang, China", "lat": 30.2489634, "lon": 120.2052342}
{"ancient_name": "钱塘", "modern_name": "Hangzhou, Zhejiang, China", "lat": 30.2489634, "lon": 120.2052342}
{"ancient_name": "建康", "modern_name": "Nanjing, Jiangsu, China", "lat": 32.0438284, "lon": 118.7788631}
{"ancient_name": "江宁", "modern_name": "Nanjing, Jiangsu, China", "lat": 32.0438284, "lon": 118.7788631}
{"ancient_name": "金陵", "modern_name": "Nanjing, Jiangsu, China", "lat": 32.0438284, "lon": 118.7788631}
{"ancient_name": "建业", "modern_name": "Nanjing, Jiangsu, China", "lat": 32.0438284, "lon": 118.7788631}
{"ancient_name": "姑苏", "modern_name": "Suzhou, Jiangsu, China", "lat": 31.311123, "lon": 120.6212881}
{"ancient_name": "会稽", "modern_name": "Shaoxing, Zhejiang, China", "lat": 29.9992425, "lon": 120.576854}
{"ancient_name": "扬州", "modern_name": "Yangzhou, Jiangsu, China", "lat": 32.3968554, "lon": 119.4077658}
{"ancient_name": "润州", "modern_name": "Zhenjiang, Jiangsu, China", "lat": 32.1891959, "lon": 119.4200069}
{"ancient_name": "益州", "modern_name": "Chengdu, Sichuan, China", "lat": 30.659867, "lon": 104.063315}
{"ancient_name": "成都", "modern_name": "Chengdu, Sichuan, China", "lat": 30.659867, "lon": 104.063315}
{"ancient_name": "蜀中", "modern_name": "Chengdu, Sichuan, China", "lat": 30.659867, "lon": 104.063315}
{"ancient_name": "夔州", "modern_name": "Fengjie County, Chongqing, China", "lat": 30.9645818, "lon": 109.3989566}
{"ancient_name": "白帝城", "modern_name": "Fengjie County, Chongqing, China", "lat": 30.9645818, "lon": 109.3989566}
{"ancient_name": "夷陵", "modern_name": "Yichang, Hubei, China", "lat": 30.6941332, "lon": 111.2803512}
{"ancient_name": "江陵", "modern_name": "Jingzhou, Hubei, China", "lat": 30.3375612, "lon": 112.2337264}
{"ancient_name": "荆州", "modern_name": "Jingzhou, Hubei, China", "lat": 30.3375612, "lon": 112.2337264}
{"ancient_name": "黄州", "modern_name": "Huanggang, Hubei, China", "lat": 30.4560187, "lon": 114.8673226}
{"ancient_name": "惠州", "modern_name": "Huizhou, Guangdong, China", "lat": 23.1125153, "lon": 114.4127007}
{"ancient_name": "儋州", "modern_name": "Danzhou, Hainan, China", "lat": 19.5173795, "lon": 109.5697188}
{"ancient_name": "广州", "modern_name": "Guangzhou, Guangdong, China", "lat": 23.1288454, "lon": 113.2590064}
{"ancient_name": "敦煌", "modern_name": "Dunhuang, Gansu, China", "lat": 40.1411004, "lon": 94.6607593}
{"ancient_name": "玉门关", "modern_name": "Yumen Pass, Dunhuang, Gansu, China", "lat": 40.2709226, "lon": 93.930674}
{"ancient_name": "阳关", "modern_name": "Yangguan Pass, Dunhuang, Gansu, China", "lat": 39.9272724, "lon": 94.0590391}
{"ancient_name": "凉州", "modern_name": "Wuwei, Gansu, China", "lat": 37.9304281, "lon": 102.6373055}
{"ancient_name": "兰州", "modern_name": "Lanzhou, Gansu, China", "lat": 36.285862, "lon": 103.632326}
{"ancient_name": "高昌", "modern_name": "Turpan, Xinjiang, China", "lat": 42.9425032, "lon": 89.1795889}
{"ancient_name": "交河", "modern_name": "Jiaohe Ruins, Turpan, Xinjiang, China", "lat": 42.9525956, "lon": 89.0619927}
{"ancient_name": "龟兹", "modern_name": "Kuqa, Xinjiang, China", "lat": 41.8196873, "lon": 83.4531594}
{"ancient_name": "于阗", "modern_name": "Hotan, Xinjiang, China", "lat": 37.1110359, "lon": 79.920893}
{"ancient_name": "疏勒", "modern_name": "Kashgar, Xinjiang, China", "lat": 39.4665981, "lon": 75.9900135}
{"ancient_name": "碎叶城", "modern_name": "Tokmok, Kyrgyzstan", "lat": 42.837655, "lon": 75.2951521}
{"ancient_name": "天竺", "modern_name": "India", "lat": 22.3511148, "lon": 78.6677428}
